,City,lat,lon,temp_F,humidity,cloudiness,wind_mph,hemisphere
0,Hilo,19.73,-155.09,70.39,88,90,3.36,northern_hem
1,Partizanskoye,55.5,94.39,45.41,91,100,3.71,northern_hem
2,Krasnosel'kup,65.7,82.47,38.71,85,58,8.3,northern_hem
3,Zaoyang,32.13,112.75,69.55,72,100,5.68,northern_hem
4,Carnarvon,-24.87,113.63,68.0,88,40,8.05,southern_hem
5,Upernavik,72.79,-56.15,23.59,80,0,11.16,northern_hem
6,Troitskoye,52.98,84.68,42.44,89,77,12.97,northern_hem
7,Laas,46.62,10.7,57.79,100,75,9.17,northern_hem
8,Puerto Ayora,-0.74,-90.35,71.01,79,97,7.0,southern_hem
9,Tawang Town,27.58,91.87,55.9,78,90,1.01,northern_hem
10,Kapaa,22.08,-159.32,77.63,78,75,14.99,northern_hem
11,Bluff,-46.6,168.33,46.0,95,99,6.93,southern_hem
12,Calatagan,13.88,120.65,82.15,80,100,9.44,northern_hem
13,Arlit,18.74,7.39,102.33,8,0,4.72,northern_hem
14,New Norfolk,-42.78,147.06,39.58,85,83,1.61,southern_hem
15,Albany,42.6,-73.97,70.34,59,100,2.24,northern_hem
16,Leningradskiy,69.38,178.42,29.17,94,100,10.89,northern_hem
17,Winneba,5.35,-0.62,75.2,88,33,2.24,northern_hem
18,Kita,13.03,-9.49,86.04,65,67,3.96,northern_hem
19,Mataura,-46.19,168.86,46.0,95,100,3.15,southern_hem
20,Port Hardy,50.7,-127.42,51.8,100,75,2.24,northern_hem
21,Broken Hill,-31.95,141.43,51.8,76,40,11.41,southern_hem
22,Khatanga,71.97,102.5,46.36,72,70,12.1,northern_hem
23,Anshun,26.25,105.93,60.37,95,100,7.81,northern_hem
24,Ilulissat,69.22,-51.1,30.2,33,20,2.24,northern_hem
25,Constitución,-35.33,-72.42,62.46,58,0,4.85,southern_hem
26,Hobart,-42.88,147.33,40.19,93,91,2.24,southern_hem
27,Port Hawkesbury,45.62,-61.35,64.92,68,75,12.75,northern_hem
28,Mimongo,-1.62,11.61,75.54,84,94,2.8,southern_hem
29,Manggar,-2.88,108.27,81.93,79,100,8.77,southern_hem
30,Lotoshino,56.23,35.64,57.16,75,85,6.96,northern_hem
31,Les Cayes,18.2,-73.75,86.77,67,30,9.01,northern_hem
32,Busselton,-33.65,115.33,55.9,47,94,21.0,southern_hem
33,Traralgon,-38.18,146.53,46.99,73,100,1.99,southern_hem
34,Punta Arenas,-53.15,-70.92,51.4,57,100,32.21,southern_hem
35,Husavik,66.04,-17.34,35.6,86,90,21.92,northern_hem
36,Katima Mulilo,-17.5,24.27,93.2,16,0,8.05,southern_hem
37,Hollins,37.34,-79.94,65.84,68,90,3.36,northern_hem
38,Provideniya,64.38,-173.3,35.31,84,27,7.58,northern_hem
39,Luwuk,-0.95,122.79,76.69,74,1,3.71,southern_hem
40,Inírida,3.87,-67.92,84.29,79,90,2.04,northern_hem
41,Clyde River,70.47,-68.59,33.96,87,100,12.17,northern_hem
42,Marsá Maţrūḩ,31.35,27.25,80.6,65,0,9.17,northern_hem
43,Kavieng,-2.57,150.8,82.42,70,15,8.23,southern_hem
44,Nanortalik,60.14,-45.24,39.06,73,100,22.66,northern_hem
45,Camargo,27.67,-105.17,81.41,25,1,9.26,northern_hem
46,Kantang,7.41,99.52,77.63,83,74,2.04,northern_hem
47,Aasiaat,68.71,-52.87,27.14,86,11,24.79,northern_hem
48,Yaoundé,3.87,11.52,80.6,74,40,5.82,northern_hem
49,Troitsko-Pechorsk,62.71,56.2,40.86,86,89,6.53,northern_hem
50,Saint George,37.1,-113.58,74.75,24,1,2.75,northern_hem
51,Hong Kong,22.29,114.16,81.36,76,100,1.01,northern_hem
52,San Patricio,19.22,-104.7,86.0,74,5,1.81,northern_hem
53,Zemetchino,53.5,42.62,60.6,58,0,5.7,northern_hem
54,Avarua,-21.21,-159.78,71.6,100,97,10.29,southern_hem
55,Thompson,55.74,-97.86,41.0,100,90,3.36,northern_hem
56,Los Llanos de Aridane,28.66,-17.92,75.4,69,20,4.7,northern_hem
57,Qasigiannguit,68.82,-51.19,30.2,33,20,2.24,northern_hem
58,Fare,-16.7,-151.02,78.66,76,22,15.1,southern_hem
59,Rikitea,-23.12,-134.97,72.19,80,44,12.62,southern_hem
60,Banjar,-8.19,114.97,80.6,94,40,1.12,southern_hem
61,Kendari,-3.94,122.5,74.5,88,58,4.03,southern_hem
62,Neuquén,-38.95,-68.06,68.0,37,0,1.66,southern_hem
63,Abu Samrah,35.3,37.18,78.31,52,0,11.61,northern_hem
64,São João da Barra,-21.64,-41.05,77.0,69,75,13.87,southern_hem
65,Cap Malheureux,-19.98,57.61,69.01,72,5,1.99,southern_hem
66,Santa Isabel Rio Negro,-0.41,-65.02,90.55,54,92,4.97,southern_hem
67,Martapura,-3.42,114.85,78.8,94,97,3.36,southern_hem
68,Arraial do Cabo,-22.97,-42.03,75.2,57,75,11.41,southern_hem
69,Ancud,-41.87,-73.82,55.0,62,0,5.01,southern_hem
70,Bambous Virieux,-20.34,57.76,69.44,77,40,3.36,southern_hem
71,Saint Paul Harbor,57.79,-152.41,50.0,81,90,10.29,northern_hem
72,Vaini,-21.2,-175.2,69.8,94,20,4.7,southern_hem
73,Sitka,57.05,-135.33,50.0,93,90,4.88,northern_hem
74,Petropavlovsk-Kamchatskiy,53.05,158.65,33.8,86,33,6.71,northern_hem
75,Bredasdorp,-34.53,20.04,62.6,77,0,5.82,southern_hem
76,Harper,4.38,-7.72,77.99,87,70,12.06,northern_hem
77,Ardeşen,41.19,40.99,75.2,78,20,4.7,northern_hem
78,Esperance,-33.87,121.9,46.4,93,40,5.82,southern_hem
79,Kiama,-34.68,150.87,51.26,52,87,1.01,southern_hem
80,Keningau,5.34,116.16,78.35,83,20,3.36,northern_hem
81,College,64.86,-147.8,37.17,93,90,3.36,northern_hem
82,Topeka,39.05,-95.68,73.49,60,1,10.29,northern_hem
83,Mehamn,71.04,27.85,44.6,75,40,12.75,northern_hem
84,Lavrentiya,65.58,-171.0,36.19,82,93,10.0,northern_hem
85,Bethel,41.37,-73.41,69.93,64,1,5.82,northern_hem
86,Broome,42.25,-75.83,67.39,68,1,8.05,northern_hem
87,Eureka,40.8,-124.16,63.36,96,77,1.52,northern_hem
88,Beringovskiy,63.05,179.32,37.27,80,93,11.77,northern_hem
89,Mar del Plata,-38.0,-57.56,51.8,87,40,10.29,southern_hem
90,Riberalta,-10.98,-66.1,91.4,49,75,11.41,southern_hem
91,Nikolskoye,59.7,30.79,65.37,59,45,4.47,northern_hem
92,Sinait,17.87,120.46,78.8,94,75,2.24,northern_hem
93,Urusha,54.05,122.9,43.38,95,100,3.71,northern_hem
94,Castro,-24.79,-50.01,78.22,34,0,3.58,southern_hem
95,Mahébourg,-20.41,57.7,69.8,77,40,3.36,southern_hem
96,Saskylakh,71.92,114.08,43.36,76,0,9.19,northern_hem
97,Barrow,71.29,-156.79,30.2,68,90,19.46,northern_hem
98,Grindavik,63.84,-22.43,41.0,56,75,23.04,northern_hem
99,Wolbrom,50.38,19.76,68.56,68,20,4.7,northern_hem
100,Olafsvik,64.89,-23.71,38.71,72,2,13.98,northern_hem
101,Khor,47.89,134.95,52.07,86,100,4.81,northern_hem
102,Chifeng,42.27,118.96,56.44,70,26,3.31,northern_hem
103,East London,-33.02,27.91,71.6,56,41,4.7,southern_hem
104,Cabedelo,-6.98,-34.83,86.0,51,20,16.11,southern_hem
105,‘Āhuimanu,21.44,-157.84,78.62,74,90,9.17,northern_hem
106,Torbay,47.67,-52.73,62.62,72,90,28.86,northern_hem
107,Hermanus,-34.42,19.23,61.0,81,0,4.0,southern_hem
108,Voloshka,61.33,40.09,56.23,94,23,5.06,northern_hem
109,Yulara,-25.24,130.99,59.0,28,42,8.05,southern_hem
110,Praia,14.92,-23.51,81.73,73,21,11.52,northern_hem
111,Vila Franca do Campo,37.72,-25.43,69.8,60,20,14.99,northern_hem
112,Buala,-8.14,159.59,80.51,79,100,4.34,southern_hem
113,Jiménez,28.33,-105.4,69.8,35,20,9.33,northern_hem
114,Mount Gambier,-37.83,140.77,42.8,100,75,6.93,southern_hem
115,Saint-Philippe,-21.36,55.77,61.5,73,2,5.82,southern_hem
116,Atuona,-9.8,-139.03,77.9,72,11,17.6,southern_hem
117,Belgrade,44.8,20.47,80.6,39,44,4.7,northern_hem
118,Faanui,-16.48,-151.75,77.72,78,7,15.43,southern_hem
119,Ribeira Grande,38.52,-28.7,71.6,56,40,11.41,northern_hem
120,Jamestown,42.1,-79.24,69.15,72,1,6.93,northern_hem
121,Nhulunbuy,-12.23,136.77,75.2,88,34,4.88,southern_hem
122,Kahone,14.15,-16.03,93.2,59,40,7.2,northern_hem
123,Teknāf,20.86,92.31,80.82,84,100,5.21,northern_hem
124,Yellowknife,62.46,-114.35,47.8,100,90,12.75,northern_hem
125,Port Alfred,-33.59,26.89,68.88,72,45,7.23,southern_hem
126,Aklavik,68.22,-135.01,35.6,93,90,6.93,northern_hem
127,Ushuaia,-54.8,-68.3,48.2,49,40,14.99,southern_hem
128,Ponta do Sol,32.67,-17.1,74.62,61,20,4.7,northern_hem
129,Pontianak,-0.03,109.33,77.0,91,100,1.92,southern_hem
130,Kon Tum,14.35,108.0,70.79,92,100,1.16,northern_hem
131,Airai,-8.93,125.41,60.73,69,79,2.35,southern_hem
132,Hamilton,39.18,-84.53,71.19,68,75,1.23,northern_hem
133,Te Anau,-45.42,167.72,42.58,89,89,1.12,southern_hem
134,Kirn,49.78,7.45,61.72,72,20,17.22,northern_hem
135,Nam Som,17.77,102.19,76.77,85,4,1.19,northern_hem
136,Noumea,-22.28,166.46,59.0,87,20,2.24,southern_hem
137,Muravlenko,63.79,74.52,40.57,77,71,8.81,northern_hem
138,Chistogorskiy,53.98,87.38,42.62,90,99,6.82,northern_hem
139,Shizunai-furukawachō,42.33,142.37,55.08,74,53,13.02,northern_hem
140,Mackay,-21.15,149.2,66.79,94,0,3.36,southern_hem
141,Iqaluit,63.75,-68.51,38.21,64,90,14.99,northern_hem
142,Payson,40.04,-111.73,67.44,36,1,5.82,northern_hem
143,Limbang,4.75,115.0,82.2,83,75,1.12,northern_hem
144,Dukat,62.55,155.55,32.74,96,100,5.21,northern_hem
145,Poronaysk,49.22,143.12,49.3,84,0,4.9,northern_hem
146,Kidal,18.44,1.41,104.09,9,0,17.27,northern_hem
147,Shimoda,34.67,138.95,66.0,80,5,7.0,northern_hem
148,Briceni,48.36,27.7,70.0,60,81,3.98,northern_hem
149,Nizhniy Tsasuchey,50.52,115.13,44.64,70,44,3.69,northern_hem
150,Lompoc,34.64,-120.46,63.99,77,1,7.25,northern_hem
151,Mastic Beach,40.77,-72.85,74.48,41,1,8.05,northern_hem
152,Zolotonosha,49.67,32.04,66.07,42,95,3.06,northern_hem
153,Alibag,18.64,72.88,83.91,94,75,4.7,northern_hem
154,Cidreira,-30.18,-50.21,74.44,60,33,4.72,southern_hem
155,La Paz,-16.5,-68.15,53.6,40,20,9.17,southern_hem
156,Sarti,40.1,23.98,75.97,67,4,6.31,northern_hem
157,Kiunga,-6.12,141.29,73.18,98,100,2.3,southern_hem
158,Saldanha,-33.01,17.94,66.2,63,7,12.75,southern_hem
159,Balkanabat,39.51,54.37,76.05,16,0,10.38,northern_hem
160,Léo,11.1,-2.1,86.81,61,35,4.52,northern_hem
161,Qorveh,35.17,47.8,60.15,27,0,5.5,northern_hem
162,Ordynskoye,54.37,81.9,42.19,91,92,6.96,northern_hem
163,Antsohihy,-14.88,47.99,72.93,64,0,3.62,southern_hem
164,Tumbes,-3.57,-80.44,73.4,83,90,9.53,southern_hem
165,Deputatsky,69.3,139.9,32.49,93,31,4.56,northern_hem
166,Olinda,-8.01,-34.86,84.2,58,40,13.87,southern_hem
167,Zvenigovo,55.97,48.02,55.4,58,19,6.71,northern_hem
168,Beira,-19.84,34.84,73.33,68,20,8.05,southern_hem
169,Yumen,40.28,97.2,59.68,31,0,6.98,northern_hem
170,Ucluelet,48.93,-125.55,57.7,93,75,6.93,northern_hem
171,Warri,5.52,5.75,79.36,83,92,7.9,northern_hem
172,Souillac,-20.52,57.52,69.8,77,40,3.36,southern_hem
173,Grand Forks,47.93,-97.03,51.62,93,90,4.7,northern_hem
174,Cherskiy,68.75,161.3,29.03,94,35,1.39,northern_hem
175,Carbonia,39.17,8.52,85.39,51,20,14.99,northern_hem
176,Tasiilaq,65.61,-37.64,32.0,88,20,1.99,northern_hem
177,Cape Town,-33.93,18.42,66.0,70,0,1.01,southern_hem
178,Butaritari,3.07,172.79,81.14,78,100,18.03,northern_hem
179,Tamale,9.4,-0.84,84.67,68,99,2.28,northern_hem
180,Port Elizabeth,-33.92,25.57,66.2,88,20,5.82,southern_hem
181,Kalmunai,7.42,81.82,78.64,85,100,9.06,northern_hem
182,Cabo San Lucas,22.89,-109.91,87.13,55,5,10.29,northern_hem
183,Longyearbyen,78.22,15.64,33.8,69,75,6.93,northern_hem
184,Pelotas,-31.77,-52.34,74.82,62,69,4.41,southern_hem
185,Praia da Vitória,38.73,-27.07,69.46,68,75,12.44,northern_hem
186,Coquimbo,-29.95,-71.34,53.6,93,90,4.7,southern_hem
187,Igarka,67.47,86.58,42.21,90,82,10.76,northern_hem
188,Plast,54.37,60.81,41.92,76,31,8.48,northern_hem
189,Kavaratti,10.57,72.64,81.84,80,95,14.16,northern_hem
190,Guatire,10.48,-66.54,83.7,66,75,6.93,northern_hem
191,Fortuna,40.6,-124.16,63.63,100,40,1.57,northern_hem
192,Borogontsy,62.67,131.17,39.97,76,0,5.79,northern_hem
193,Kotido,2.98,34.13,76.44,56,63,6.33,northern_hem
194,Dikson,73.51,80.55,39.96,87,19,16.4,northern_hem
195,Bonga,7.28,36.23,62.37,88,83,0.27,northern_hem
196,Ferme-Neuve,46.7,-75.45,55.47,57,44,6.64,northern_hem
197,Kaitangata,-46.28,169.85,48.99,90,100,3.0,southern_hem
198,Anadyr,64.75,177.48,30.09,92,20,11.18,northern_hem
199,Mount Isa,-20.73,139.5,59.0,51,0,1.12,southern_hem
200,Touros,-5.2,-35.46,86.0,55,40,18.34,southern_hem
201,Caravelas,-17.71,-39.25,80.67,59,46,9.4,southern_hem
202,Sioux Lookout,50.1,-91.92,48.2,81,75,6.93,northern_hem
203,Codrington,-38.27,141.97,43.36,92,100,7.18,southern_hem
204,Sémbé,1.65,14.58,76.53,87,96,3.87,northern_hem
205,Chambéry,45.57,5.93,60.6,97,99,3.94,northern_hem
206,Roald,62.58,6.13,46.72,93,75,4.7,northern_hem
207,Río Gallegos,-51.62,-69.22,59.0,40,40,13.87,southern_hem
208,Prymors'k,46.73,36.34,68.5,61,30,6.87,northern_hem
209,Piojó,10.75,-75.11,77.18,88,75,5.7,northern_hem
210,Yangambi,0.81,24.43,75.38,86,100,3.6,northern_hem
211,Szczecinek,53.71,16.7,66.67,58,54,7.0,northern_hem
212,Chapais,49.78,-74.85,44.6,65,75,11.41,northern_hem
213,Bima,-8.47,118.72,76.62,86,95,4.29,southern_hem
214,Kaka,37.35,59.61,60.39,26,0,5.14,northern_hem
215,Kemijärvi,66.71,27.43,45.21,76,99,5.75,northern_hem
216,Ostrovnoy,68.05,39.51,46.99,72,92,4.88,northern_hem
217,Gürsu,40.22,29.19,78.8,44,58,4.7,northern_hem
218,Kaminskiy,57.15,41.47,58.73,89,100,5.68,northern_hem
219,Qaanaaq,77.48,-69.36,20.19,87,98,12.3,northern_hem
220,George Town,5.41,100.34,82.38,74,20,6.93,northern_hem
221,Pacific Grove,36.62,-121.92,64.65,79,1,5.82,northern_hem
222,Maceió,-9.67,-35.74,82.4,58,75,11.41,southern_hem
223,Yantal',56.85,105.25,47.66,67,0,4.32,northern_hem
224,Norman Wells,65.28,-126.83,41.0,100,75,3.36,northern_hem
225,Egvekinot,66.32,-179.17,29.46,90,99,16.06,northern_hem
226,Ulaangom,49.98,92.07,53.35,49,97,6.06,northern_hem
227,Vaitape,-16.52,-151.75,78.58,77,8,15.35,southern_hem
228,Bud,39.45,-86.18,69.4,60,1,2.66,northern_hem
229,São Filipe,14.9,-24.5,81.48,75,19,6.31,northern_hem
230,Fukuechō,32.69,128.84,72.64,88,100,24.07,northern_hem
231,The Valley,18.22,-63.06,88.03,74,20,10.29,northern_hem
232,Lagoa,39.05,-27.98,67.1,69,93,12.17,northern_hem
233,Pitimbu,-7.47,-34.81,86.0,51,20,16.11,southern_hem
234,Aksu,41.12,80.26,69.19,24,0,6.51,northern_hem
235,São Miguel do Araguaia,-13.28,-50.16,100.02,30,64,5.91,southern_hem
236,Liverpool,53.41,-2.98,53.11,66,40,3.36,northern_hem
237,Leshukonskoye,64.9,45.76,48.11,95,76,3.71,northern_hem
238,St. Marys,30.73,-81.55,83.79,66,44,12.75,northern_hem
239,Bandar,2.05,99.75,75.15,90,98,1.68,northern_hem
240,Rabo de Peixe,37.8,-25.58,69.8,60,20,14.99,northern_hem
241,Saint-Pierre,-21.34,55.48,62.22,73,2,5.82,southern_hem
242,Hualmay,-11.1,-77.61,67.42,66,58,10.45,southern_hem
243,Nemuro,43.32,145.57,55.74,76,20,16.4,northern_hem
244,Iralaya,15.0,-83.23,87.8,70,40,6.93,northern_hem
245,Mzimba,-11.9,33.6,66.33,40,2,7.7,southern_hem
246,Aduturai,11.01,79.48,81.39,80,74,9.53,northern_hem
247,Loukhi,66.08,33.04,53.38,91,100,2.86,northern_hem
248,Bahār,34.91,48.44,86.34,12,0,7.05,northern_hem
249,Longview,32.5,-94.74,66.45,88,90,6.93,northern_hem
250,Guerrero Negro,27.98,-114.06,79.97,47,0,9.84,northern_hem
251,Zhytomyr,50.26,28.68,62.29,47,78,4.85,northern_hem
252,Chokurdakh,70.63,147.92,35.4,92,76,7.14,northern_hem
253,Luena,-11.78,19.92,89.6,25,20,9.17,southern_hem
254,Lixouri,38.2,20.43,78.8,78,0,10.29,northern_hem
255,Mayo,38.89,-76.51,68.22,73,1,1.52,northern_hem
256,Querecotillo,-4.84,-80.65,82.13,44,45,6.87,southern_hem
257,Lokosovo,61.13,74.82,42.66,90,99,11.23,northern_hem
258,Cheremkhovo,53.16,103.07,44.1,92,70,5.97,northern_hem
259,Aksarka,66.56,67.8,37.6,84,49,4.72,northern_hem
260,Saint-Joseph,-21.37,55.62,63.3,73,2,5.82,southern_hem
261,Chui,-33.7,-53.46,65.28,56,33,6.35,southern_hem
262,Havøysund,71.0,24.66,43.72,81,75,5.82,northern_hem
263,Moranbah,-22.0,148.05,67.55,82,0,5.64,southern_hem
264,Banyo,6.75,11.82,73.53,84,81,4.56,northern_hem
265,Bulgan,48.81,103.53,48.29,77,100,1.41,northern_hem
266,Berlevåg,70.86,29.09,41.67,80,20,8.05,northern_hem
267,Kenora,49.82,-94.43,55.11,67,75,6.93,northern_hem
268,Bengkulu,-3.8,102.27,76.19,90,45,5.53,southern_hem
269,Bubaque,11.28,-15.83,82.08,80,58,12.73,northern_hem
270,Kahului,20.89,-156.47,73.89,73,1,10.29,northern_hem
271,Carutapera,-1.2,-46.02,87.55,57,20,10.2,southern_hem
272,Faya,18.39,42.45,72.5,56,77,12.75,northern_hem
273,Kenai,60.55,-151.26,45.84,93,90,3.36,northern_hem
274,Yarmouth,41.71,-70.23,77.23,39,1,8.05,northern_hem
275,Adrar,20.5,-10.07,101.39,18,67,9.44,northern_hem
276,Caucayá,-0.19,-74.78,75.67,92,100,0.58,southern_hem
277,Kumul,42.8,93.45,69.12,25,0,5.32,northern_hem
278,Urdoma,61.75,48.54,51.08,90,51,7.27,northern_hem
279,Kochubey,44.39,46.58,66.54,74,19,12.39,northern_hem
280,Coyhaique,-45.58,-72.07,57.2,63,32,9.17,southern_hem
281,Yaan,7.38,8.57,79.63,79,77,5.17,northern_hem
282,Alta Floresta,-9.88,-56.09,96.8,41,40,5.82,southern_hem
283,Kodinsk,58.69,99.18,46.78,79,100,1.72,northern_hem
284,Asău,46.43,26.4,73.72,50,40,6.93,northern_hem
285,Pelym,61.01,62.0,39.47,86,56,4.68,northern_hem
286,Waterloo,43.47,-80.52,71.22,68,40,9.17,northern_hem
287,Hostotipaquillo,21.07,-104.07,73.0,76,11,7.0,northern_hem
288,Lüshunkou,38.8,121.27,67.19,93,20,2.24,northern_hem
289,Kerema,-7.96,145.78,77.74,88,99,9.51,southern_hem
290,Ceres,37.59,-120.96,69.01,68,1,6.93,northern_hem
291,Sorong,-0.88,131.25,78.46,85,87,5.95,southern_hem
292,Homer,59.64,-151.55,49.15,100,90,2.1,northern_hem
293,Coahuayana Viejo,18.73,-103.68,80.6,78,5,0.92,northern_hem
294,Zorgo,12.25,-0.62,90.86,46,84,3.27,northern_hem
295,Xam Nua,20.42,104.04,66.69,95,98,1.77,northern_hem
296,Taltal,-25.4,-70.48,64.15,58,69,7.45,southern_hem
297,Hofn,64.25,-15.21,41.0,48,75,19.46,northern_hem
298,Isangel,-19.55,169.27,73.4,85,17,11.03,southern_hem
299,Jieshi,22.81,115.83,79.27,83,96,7.18,northern_hem
300,Eyrarbakki,63.86,-21.15,39.94,48,20,27.51,northern_hem
301,Anchorage,61.22,-149.9,45.75,87,90,3.36,northern_hem
302,Margate,51.38,1.39,55.99,76,12,5.99,northern_hem
303,Søgne,58.08,7.82,53.49,71,75,17.22,northern_hem
304,Mahon,39.89,4.27,80.6,65,20,13.87,northern_hem
305,The Pas,53.83,-101.25,51.8,81,75,18.34,northern_hem
306,Marabu,4.41,114.01,78.4,88,20,3.36,northern_hem
307,Ust'-Ilimsk,58.0,102.66,46.18,72,10,7.25,northern_hem
308,Batagay,67.63,134.63,37.71,78,15,2.82,northern_hem
309,Monrovia,6.3,-10.8,82.4,78,75,9.17,northern_hem
310,Privodino,61.08,46.5,52.29,94,31,6.38,northern_hem
311,Makakilo City,21.35,-158.09,77.7,73,1,4.7,northern_hem
312,Kochi,9.94,76.26,80.6,88,75,3.36,northern_hem
313,Garachiné,8.06,-78.36,82.89,74,92,6.6,northern_hem
314,Aksay,47.26,39.87,73.4,40,0,13.42,northern_hem
315,North Platte,41.12,-100.77,72.41,53,1,6.93,northern_hem
316,Naze,28.37,129.48,78.8,88,82,6.93,northern_hem
317,Salamiyah,35.01,37.05,75.43,61,0,13.42,northern_hem
318,Tuktoyaktuk,69.45,-133.04,33.8,100,90,19.46,northern_hem
319,Ola,59.58,151.28,39.69,72,8,7.83,northern_hem
320,Iskateley,67.68,53.15,45.79,84,100,12.28,northern_hem
321,Porto-Novo,6.5,2.6,78.8,83,40,3.36,northern_hem
322,Araouane,18.9,-3.53,105.82,13,0,9.44,northern_hem
323,Manche,49.0,-1.17,55.31,82,90,13.87,northern_hem
324,Ulladulla,-35.35,150.47,43.21,76,90,4.7,southern_hem
325,Itoman,26.12,127.67,79.34,74,75,12.75,northern_hem
326,Havre-St-Pierre,50.23,-63.6,53.6,66,40,20.8,northern_hem
327,Tomatlán,19.93,-105.25,89.17,65,0,0.94,northern_hem
328,Tessalit,20.2,1.01,105.26,8,0,15.59,northern_hem
329,Sarh,9.14,18.39,87.8,62,20,4.0,northern_hem
330,Yar-Sale,66.83,70.83,39.34,88,58,2.8,northern_hem
331,Riyadh,24.69,46.72,100.4,13,0,5.82,northern_hem
332,Lubao,14.92,120.55,77.9,94,90,2.24,northern_hem
333,Kununurra,-15.77,128.73,77.0,94,30,9.35,southern_hem
334,Lebu,-37.62,-73.65,54.91,65,0,11.86,southern_hem
335,Bilibino,68.05,166.44,24.37,93,11,5.68,northern_hem
336,Florida,28.75,-82.5,85.08,51,40,5.82,northern_hem
337,Grand Gaube,-20.01,57.66,69.01,72,3,1.99,southern_hem
338,Nanga Eboko,4.68,12.37,76.26,75,98,3.56,northern_hem
339,Ketchikan,55.34,-131.65,54.3,100,75,11.41,northern_hem
340,Pevek,69.7,170.31,31.75,95,93,16.04,northern_hem
341,Nyurba,63.28,118.33,38.08,82,2,5.39,northern_hem
342,Manyana,-23.4,21.72,89.26,13,74,4.18,southern_hem
343,Matipó,-20.28,-42.34,78.66,57,84,1.61,southern_hem
344,Ciudad Bolivar,8.12,-63.55,91.0,55,100,8.66,northern_hem
345,Tuatapere,-46.13,167.68,46.0,95,81,4.0,southern_hem
346,Fehérvárcsurgó,47.29,18.26,75.36,44,71,2.24,northern_hem
347,Tezu,27.92,96.17,73.99,86,100,4.59,northern_hem
348,Khedbrahma,24.03,73.05,82.02,70,1,5.82,northern_hem
349,Narsaq,60.92,-46.05,42.8,45,75,41.38,northern_hem
350,Zhengjiatun,43.51,123.51,57.22,79,100,1.72,northern_hem
351,Ambulu,-8.35,113.61,76.66,86,72,1.95,southern_hem
352,Pergine Valsugana,46.06,11.24,54.86,100,90,16.11,northern_hem
353,Tura,25.52,90.22,74.73,98,100,6.42,northern_hem
354,Richards Bay,-28.78,32.04,74.95,62,0,13.67,southern_hem
355,Florianópolis,-27.61,-48.5,77.41,50,1,14.99,southern_hem
356,Tiksi,71.69,128.87,43.47,74,0,11.3,northern_hem
357,Mossamedes,-15.2,12.15,69.8,77,40,18.34,southern_hem
358,Korla,41.76,86.15,71.01,73,0,1.99,northern_hem
359,Conde,-7.26,-34.91,86.0,51,20,16.11,southern_hem
360,Tshane,-24.02,21.87,89.51,13,72,4.9,southern_hem
361,Vigrestad,58.57,5.7,49.19,81,75,20.8,northern_hem
362,Gladstone,-23.85,151.25,66.2,82,90,1.34,southern_hem
363,Ellensburg,47.0,-120.55,54.79,71,20,2.64,northern_hem
364,Boguchany,58.38,97.45,43.32,93,99,2.59,northern_hem
365,Xining,36.62,101.77,50.58,75,100,1.61,northern_hem
366,Jalu,29.03,21.55,94.26,21,0,9.35,northern_hem
367,Nueva Gerona,21.88,-82.8,88.93,60,99,7.94,northern_hem
368,Meïganga,6.52,14.3,75.02,86,97,1.43,northern_hem
369,Thinadhoo,0.53,72.93,83.05,68,84,5.91,northern_hem
370,Sarkand,45.41,79.92,51.44,60,92,8.86,northern_hem
371,Mana,5.66,-53.78,85.8,69,35,9.8,northern_hem
372,Lahaina,20.88,-156.68,73.63,73,1,10.29,northern_hem
373,Singaparna,-7.35,108.11,70.68,90,71,2.44,southern_hem
374,Tuensang,26.28,94.83,71.37,85,100,2.39,northern_hem
375,Ndélé,8.41,20.65,72.84,92,100,1.36,northern_hem
376,Gamba,-2.65,10.0,77.63,81,75,8.57,southern_hem
377,Berdigestyakh,62.1,126.7,38.89,75,0,5.91,northern_hem
378,Moratuwa,6.77,79.88,80.6,88,90,4.7,northern_hem
379,Portobelo,9.55,-79.65,77.0,94,100,7.0,northern_hem
380,Lorengau,-2.02,147.27,81.63,63,55,6.2,southern_hem
381,Aldan,58.6,125.39,36.46,82,29,3.15,northern_hem
382,Cuajinicuilapa,16.47,-98.42,87.71,64,1,1.41,northern_hem
383,Kruisfontein,-34.0,24.73,64.99,83,23,3.0,southern_hem
384,Fairbanks,64.84,-147.72,37.0,100,90,3.31,northern_hem
385,Trairi,-3.28,-39.27,85.77,53,2,18.07,southern_hem
386,Lüderitz,-26.65,15.16,62.64,71,0,7.61,southern_hem
387,Victor Harbor,-35.57,138.62,44.01,83,78,15.21,southern_hem
388,Youkounkoun,12.53,-13.13,80.19,89,100,3.38,northern_hem
389,Sobolevo,54.43,31.9,56.39,73,19,7.05,northern_hem
390,Del Rio,29.36,-100.9,73.65,69,90,8.05,northern_hem
391,Mēga,4.05,38.3,65.93,66,33,13.85,northern_hem
392,Panguna,-6.32,155.48,68.7,99,100,1.1,southern_hem
393,Sittwe,20.15,92.9,82.27,82,100,6.31,northern_hem
394,Nome,64.5,-165.41,26.6,79,1,5.32,northern_hem
395,Montevideo,-34.83,-56.17,66.49,34,69,14.99,southern_hem
396,Ures,29.43,-110.4,87.49,31,3,3.0,northern_hem
397,Mantamádos,39.31,26.33,75.2,83,20,4.92,northern_hem
398,Champerico,14.3,-91.92,77.25,78,40,5.12,northern_hem
399,Sola,-13.88,167.55,78.91,84,44,14.94,southern_hem
400,Vao,-22.67,167.48,71.65,85,3,14.23,southern_hem
401,Nishihara,26.18,127.76,79.14,74,75,12.75,northern_hem
402,Lázaro Cárdenas,17.96,-102.2,84.15,73,51,4.05,northern_hem
403,Kirkland Lake,48.14,-80.04,51.8,62,90,9.17,northern_hem
404,Shenjiamen,29.96,122.3,71.37,81,1,13.85,northern_hem
405,Comodoro Rivadavia,-45.87,-67.5,68.0,24,0,16.11,southern_hem
406,Arman',59.7,150.17,39.36,72,52,8.23,northern_hem
407,Salalah,17.02,54.09,80.6,88,75,8.05,northern_hem
408,Rūdbār,30.15,62.6,71.58,20,0,5.14,northern_hem
409,Mabaruma,8.2,-59.78,92.37,52,100,6.2,northern_hem
410,Yima,34.74,111.88,69.01,99,74,3.71,northern_hem
411,Bodden Town,19.28,-81.25,88.92,74,20,5.82,northern_hem
412,Arawa,-6.21,155.54,77.18,82,100,3.2,southern_hem
413,Mto wa Mbu,-3.35,35.85,77.92,43,38,9.44,southern_hem
414,Necochea,-38.55,-58.74,66.0,65,0,5.99,southern_hem
415,Boa Vista,2.82,-60.67,93.2,41,40,8.05,northern_hem
416,Levittown,40.16,-74.83,72.0,56,1,2.13,northern_hem
417,Rome,43.21,-75.46,66.4,68,1,2.64,northern_hem
418,Viedma,-40.81,-63.0,75.0,35,0,5.01,southern_hem
419,Boyabat,41.47,34.77,73.4,73,75,5.82,northern_hem
420,Bull Savanna,17.89,-77.59,84.83,69,93,10.58,northern_hem
421,Mbini,1.57,9.61,80.6,88,40,9.17,northern_hem
422,Chake Chake,-5.25,39.77,76.44,80,17,9.4,southern_hem
423,Laguna,38.42,-121.42,66.13,82,1,4.7,northern_hem
424,Vilyuysk,63.76,121.62,39.02,79,3,5.39,northern_hem
425,Igrim,63.19,64.42,39.25,90,18,2.26,northern_hem
426,Tual,-5.67,132.75,81.28,83,31,11.95,southern_hem
427,Cantaura,9.31,-64.36,88.54,58,100,10.76,northern_hem
428,Jalingo,8.88,11.37,82.0,77,87,3.87,northern_hem
429,Piney Green,34.72,-77.32,72.46,60,75,2.68,northern_hem
430,Alyangula,-13.85,136.42,73.4,83,0,5.39,southern_hem
431,Galveston,29.37,-94.97,72.45,78,90,6.93,northern_hem
432,Redmond,47.67,-122.12,57.04,90,100,1.01,northern_hem
433,San Cristobal,7.77,-72.22,89.6,52,40,4.7,northern_hem
434,Marco,25.97,-81.73,87.04,62,90,12.75,northern_hem
435,Pisco,-13.7,-76.22,63.64,88,90,6.93,southern_hem
436,Sherbakul',54.63,72.4,46.4,75,75,15.66,northern_hem
437,Maykor,59.01,55.88,43.77,79,68,3.85,northern_hem
438,Maun,-19.98,23.42,91.4,19,0,4.7,southern_hem
439,Victoria Point,-27.58,153.3,58.71,73,0,3.78,southern_hem
440,Port Lincoln,-34.73,135.87,46.89,69,73,19.33,southern_hem
441,Namatanai,-3.67,152.43,81.03,71,89,3.89,southern_hem
442,Morón,-34.65,-58.62,70.61,43,100,14.99,southern_hem
443,Sorata,-15.77,-68.63,96.85,10,0,10.65,southern_hem
444,Bac Lieu,9.29,105.72,80.08,83,78,7.83,northern_hem
445,Gazojak,41.19,61.4,69.06,22,0,10.07,northern_hem
446,Huaidian,33.43,115.03,69.19,64,68,1.61,northern_hem
447,Jertih,5.73,102.49,77.0,100,20,2.8,northern_hem
448,Laureles,26.11,-97.49,84.22,74,0,1.99,northern_hem
449,Sept-Îles,50.2,-66.38,60.94,41,75,11.41,northern_hem
450,Korhogo,9.45,-5.63,83.39,71,99,4.56,northern_hem
451,Kieta,-6.22,155.63,78.39,79,100,4.5,southern_hem
452,Ambon City,-3.7,128.18,79.23,83,100,7.43,southern_hem
453,Saint-Augustin,51.23,-58.65,58.55,62,93,16.67,northern_hem
454,Jardim,-21.48,-56.14,92.89,35,0,5.06,southern_hem
455,Nālūt,30.33,10.85,105.42,11,7,3.67,northern_hem
456,Chimoré,-16.98,-65.13,99.93,23,0,5.03,southern_hem
457,Aquin,18.28,-73.4,86.59,65,13,8.5,northern_hem
458,Hithadhoo,-0.6,73.08,82.67,61,53,3.76,southern_hem
459,Bereda,43.27,-7.54,55.33,95,87,10.0,northern_hem
460,Klaksvík,62.23,-6.59,44.6,81,40,12.75,northern_hem
461,Saint-François,46.42,3.91,62.33,88,100,8.05,northern_hem
462,Doka,13.52,35.77,84.79,67,99,4.81,northern_hem
463,Laranjeiras do Sul,-25.41,-52.42,80.73,38,0,3.42,southern_hem
464,Cortez,37.35,-108.59,62.44,22,1,4.14,northern_hem
465,Saint-Raymond,45.47,-73.61,61.45,87,90,6.93,northern_hem
466,Mirny,62.54,113.96,39.2,60,0,6.71,northern_hem
467,Ust'ye,59.63,39.74,57.42,87,7,5.77,northern_hem
468,Verkhniye Tatyshly,56.29,55.86,43.88,77,0,1.03,northern_hem
469,Duque de Caxias,-22.79,-43.31,78.3,61,75,8.05,southern_hem
470,Lata,40.16,-8.33,66.99,62,66,4.0,northern_hem
471,Celestún,20.87,-90.4,87.46,58,0,0.76,northern_hem
472,Najrān,17.49,44.13,89.6,14,3,4.7,northern_hem
473,Kathu,7.92,98.33,80.47,88,75,2.24,northern_hem
474,Sturgis,41.8,-85.42,69.82,68,1,8.05,northern_hem
475,Port Moresby,-9.44,147.18,78.8,78,40,17.22,southern_hem
476,Kütahya,39.42,29.98,73.4,40,75,4.7,northern_hem
477,Mocuba,-16.84,36.99,76.73,54,0,7.87,southern_hem
478,Matinha,-3.1,-45.03,94.12,42,43,3.87,southern_hem
479,Poya,-21.35,165.15,66.06,69,0,4.97,southern_hem
480,Geraldton,-28.77,114.6,60.8,93,40,5.82,southern_hem
481,Ahipara,-35.17,173.17,57.87,93,100,4.07,southern_hem
482,Viborg,56.45,9.4,55.47,82,75,8.05,northern_hem
483,Māndal,25.45,74.57,82.83,43,12,8.41,northern_hem
484,Kitui,-1.37,38.01,86.07,44,84,11.83,southern_hem
485,Dabeiba,7.0,-76.27,87.55,59,73,4.03,northern_hem
486,Port Macquarie,-31.43,152.92,46.44,96,0,6.02,southern_hem
487,Mumford,5.26,-0.76,78.21,80,26,10.74,northern_hem
488,Opunake,-39.46,173.86,47.95,97,5,1.01,southern_hem
489,Hasaki,35.73,140.83,66.36,94,75,14.99,northern_hem
490,Manicoré,-5.81,-61.3,89.6,62,1,5.82,southern_hem
491,Muros,42.78,-9.06,63.55,75,21,8.99,northern_hem
492,Tarragona,41.13,1.25,74.05,60,40,6.93,northern_hem
493,Saint Anthony,45.02,-93.22,67.8,64,1,4.7,northern_hem
494,Parkersburg,39.27,-81.56,70.68,72,1,0.38,northern_hem
495,Roseburg,43.22,-123.34,58.1,87,1,3.36,northern_hem
496,Kutum,14.2,24.67,101.7,17,99,13.6,northern_hem
497,Gijang,35.24,129.21,69.8,56,97,12.75,northern_hem
498,Steamboat Springs,40.48,-106.83,55.09,40,41,4.0,northern_hem
499,Batemans Bay,-35.72,150.18,36.72,91,99,5.3,southern_hem
